[
  {
    "id": 1,
    "viaggio": "Italia",
    "inizio": "2022-01-01",
    "fine": "2022-12-31",
    "luoghi": [
      {
        "nome": "Colosseo",
        "città": "Roma",
        "descrizione": "Il Colosseo è un antico anfiteatro romano, il più grande mai costruito, e uno dei monumenti più iconici d’Italia.",
        "categoria": "Storico",
        "coordinate": {
          "latitudine": 41.8902,
          "longitudine": 12.4922
        },
        "immagine": "https://example.com/colosseo.jpg"
      },
      {
        "nome": "Duomo di Firenze",
        "città": "Firenze",
        "descrizione": "La Cattedrale di Santa Maria del Fiore, conosciuta come il Duomo di Firenze, è famosa per la sua cupola progettata da Brunelleschi.",
        "categoria": "Religioso",
        "coordinate": {
          "latitudine": 43.7731,
          "longitudine": 11.256
        },
        "immagine": "https://example.com/duomo_firenze.jpg"
      },
      {
        "nome": "Canal Grande",
        "città": "Venezia",
        "descrizione": "Il Canal Grande è il principale canale di Venezia, famoso per i suoi palazzi storici e i pittoreschi ponti.",
        "categoria": "Paesaggistico",
        "coordinate": {
          "latitudine": 45.4408,
          "longitudine": 12.3155
        },
        "immagine": "https://example.com/canal_grande.jpg"
      },
      {
        "nome": "Pompei",
        "città": "Pompei",
        "descrizione": "Pompei è un’antica città romana sepolta dall’eruzione del Vesuvio nel 79 d.C., oggi un sito archeologico di grande importanza.",
        "categoria": "Storico",
        "coordinate": {
          "latitudine": 40.746,
          "longitudine": 14.4989
        },
        "immagine": "https://example.com/pompei.jpg"
      },
      {
        "nome": "Torre di Pisa",
        "città": "Pisa",
        "descrizione": "La Torre Pendente di Pisa è uno dei monumenti più riconoscibili al mondo, famosa per la sua inclinazione.",
        "categoria": "Storico",
        "coordinate": {
          "latitudine": 43.723,
          "longitudine": 10.3966
        },
        "immagine": "https://example.com/torre_pisa.jpg"
      },
      {
        "nome": "Lago di Como",
        "città": "Como",
        "descrizione": "Il Lago di Como è noto per i suoi paesaggi mozzafiato, le ville storiche e i pittoreschi villaggi lungo le sue rive.",
        "categoria": "Paesaggistico",
        "coordinate": {
          "latitudine": 45.9237,
          "longitudine": 9.2572
        },
        "immagine": "https://example.com/lago_como.jpg"
      },
      {
        "nome": "Costiera Amalfitana",
        "città": "Amalfi",
        "descrizione": "La Costiera Amalfitana è famosa per le sue scogliere spettacolari, i pittoreschi villaggi e le acque cristalline.",
        "categoria": "Paesaggistico",
        "coordinate": {
          "latitudine": 40.6333,
          "longitudine": 14.6029
        },
        "immagine": "https://example.com/costiera_amalfitana.jpg"
      },
      {
        "nome": "Cinque Terre",
        "città": "Liguria",
        "descrizione": "Le Cinque Terre sono una serie di cinque villaggi costieri noti per i loro paesaggi colorati e le escursioni panoramiche.",
        "categoria": "Paesaggistico",
        "coordinate": {
          "latitudine": 44.1277,
          "longitudine": 9.7094
        },
        "immagine": "https://example.com/cinque_terre.jpg"
      },
      {
        "nome": "Vaticano",
        "città": "Città del Vaticano",
        "descrizione": "La Città del Vaticano è il centro della Chiesa Cattolica, sede della Basilica di San Pietro e dei Musei Vaticani.",
        "categoria": "Religioso",
        "coordinate": {
          "latitudine": 41.9029,
          "longitudine": 12.4534
        },
        "immagine": "https://example.com/vaticano.jpg"
      },
      {
        "nome": "Galleria degli Uffizi",
        "città": "Firenze",
        "descrizione": "La Galleria degli Uffizi è uno dei musei d’arte più famosi al mondo, con una vasta collezione di opere rinascimentali.",
        "categoria": "Culturale",
        "coordinate": {
          "latitudine": 43.7687,
          "longitudine": 11.2558
        },
        "immagine": "https://example.com/galleria_uffizi.jpg"
      }
    ]
  },
  {
    "id": 2,
    "viaggio": "Francia",
    "inizio": "2022-01-01",
    "fine": "2022-12-31",
    "luoghi": [
      {
        "nome": "Torre Eiffel",
        "città": "Parigi",
        "descrizione": "La Torre Eiffel è uno dei monumenti più iconici al mondo, simbolo di Parigi e della Francia.",
        "categoria": "Storico",
        "coordinate": {
          "latitudine": 48.8584,
          "longitudine": 2.2945
        },
        "immagine": "https://example.com/torre_eiffel.jpg"
      },
      {
        "nome": "Museo del Louvre",
        "città": "Parigi",
        "descrizione": "Il Museo del Louvre è uno dei più grandi e famosi musei d'arte del mondo, ospita opere come la Gioconda e la Venere di Milo.",
        "categoria": "Culturale",
        "coordinate": {
          "latitudine": 48.8606,
          "longitudine": 2.3376
        },
        "immagine": "https://example.com/museo_louvre.jpg"
      },
      {
        "nome": "Palazzo di Versailles",
        "città": "Versailles",
        "descrizione": "Il Palazzo di Versailles è una delle residenze reali più famose al mondo, noto per i suoi giardini spettacolari e la Sala degli Specchi.",
        "categoria": "Storico",
        "coordinate": {
          "latitudine": 48.8049,
          "longitudine": 2.1204
        },
        "immagine": "https://example.com/palazzo_versailles.jpg"
      },
      {
        "nome": "Mont Saint-Michel",
        "città": "Normandia",
        "descrizione": "Mont Saint-Michel è un'isola tidale famosa per la sua abbazia medievale e il pittoresco villaggio.",
        "categoria": "Storico",
        "coordinate": {
          "latitudine": 48.6361,
          "longitudine": -1.5115
        },
        "immagine": "https://example.com/mont_saint_michel.jpg"
      },
      {
        "nome": "Cattedrale di Notre-Dame",
        "città": "Parigi",
        "descrizione": "La Cattedrale di Notre-Dame è un capolavoro dell'architettura gotica, famosa per le sue vetrate e i gargoyle.",
        "categoria": "Religioso",
        "coordinate": {
          "latitudine": 48.8529,
          "longitudine": 2.35
        },
        "immagine": "https://example.com/notre_dame.jpg"
      },
      {
        "nome": "Costa Azzurra",
        "città": "Riviera Francese",
        "descrizione": "La Costa Azzurra è famosa per le sue spiagge glamour, i resort di lusso e le acque cristalline.",
        "categoria": "Paesaggistico",
        "coordinate": {
          "latitudine": 43.7034,
          "longitudine": 7.2663
        },
        "immagine": "https://example.com/costa_azzurra.jpg"
      },
      {
        "nome": "Castelli della Loira",
        "città": "Valle della Loira",
        "descrizione": "I Castelli della Loira sono una serie di castelli rinascimentali situati lungo il fiume Loira, noti per la loro bellezza e storia.",
        "categoria": "Storico",
        "coordinate": {
          "latitudine": 47.4136,
          "longitudine": 0.6848
        },
        "immagine": "https://example.com/castelli_loira.jpg"
      },
      {
        "nome": "Provenza",
        "città": "Provenza",
        "descrizione": "La Provenza è famosa per i suoi campi di lavanda, i pittoreschi villaggi e il clima mediterraneo.",
        "categoria": "Paesaggistico",
        "coordinate": {
          "latitudine": 43.9493,
          "longitudine": 4.8055
        },
        "immagine": "https://example.com/provenza.jpg"
      },
      {
        "nome": "Chamonix-Mont-Blanc",
        "città": "Chamonix",
        "descrizione": "Chamonix-Mont-Blanc è una famosa località sciistica situata ai piedi del Monte Bianco, la montagna più alta d'Europa.",
        "categoria": "Paesaggistico",
        "coordinate": {
          "latitudine": 45.9237,
          "longitudine": 6.8694
        },
        "immagine": "https://example.com/chamonix_mont_blanc.jpg"
      },
      {
        "nome": "Carcassonne",
        "città": "Carcassonne",
        "descrizione": "Carcassonne è una città fortificata medievale, famosa per le sue mura ben conservate e il castello.",
        "categoria": "Storico",
        "coordinate": {
          "latitudine": 43.213,
          "longitudine": 2.351
        },
        "immagine": "https://example.com/carcassonne.jpg"
      }
    ]
  }
]
